stop_id,stop_code,stop_name,stop_desc,stop_lat,stop_lon,zone_id,stop_url,location_type,platform_code,parent_station
2_親,,岡山駅,親（駅・ターミナル）,34.6649785327933,133.918632712011,,https://www.unobus.co.jp/bustei/2#2_01,1,,
2_01,,岡山駅,,34.6649511659916,133.918614140014,2_01,https://www.unobus.co.jp/bustei/2#2_01,0,11,2_親
2_04,,岡山駅,,34.665088,133.918707,2_04,https://www.unobus.co.jp/bustei/2#2_04,0,12,2_親
3_03,,柳川西（北側）東岡山,,34.665708,133.923902,3_03,https://www.unobus.co.jp/bustei/3#3_03,0,,
4_親,,岡山駅前・ドレミの街,親（駅・ターミナル）,34.665691,133.921284,,https://www.unobus.co.jp/bustei/4#4_01,1,,
4_01,,岡山駅前・ドレミの街,,34.665691,133.921284,4_01,https://www.unobus.co.jp/bustei/4#4_01,0,6,4_親
5_01,,柳川西（北側）,,34.665708,133.923902,5_01,https://www.unobus.co.jp/bustei/5#5_01,0,,
6_01,,柳川,,34.665783,133.927505,6_01,https://www.unobus.co.jp/bustei/6#6_01,0,,
6_03,,柳川,,34.665496,133.927501,6_03,https://www.unobus.co.jp/bustei/6#6_03,0,,
7_03,,柳川西（南側）,,34.665478,133.924762714286,7_03,https://www.unobus.co.jp/bustei/7#7_03,0,,
8_01,,表町入口,,34.665818,133.928961285715,8_01,https://www.unobus.co.jp/bustei/8#8_01,0,,
8_03,,表町入口,,34.665468,133.928941571429,8_03,https://www.unobus.co.jp/bustei/8#8_03,0,,
10_01,,中銀本店西,,34.66287,133.930568,10_01,https://www.unobus.co.jp/bustei/10#10_01,0,,
10_03,,中銀本店西,,34.662609,133.930308,10_03,https://www.unobus.co.jp/bustei/10#10_03,0,,
12_01,,表町BC,,34.661572,133.930042,12_01,https://www.unobus.co.jp/bustei/12#12_01,0,,
12_02,,表町BC,,34.661499,133.930044,12_02,https://www.unobus.co.jp/bustei/12#12_02,0,,
12_03,,表町BC,,34.661394,133.930167,12_03,https://www.unobus.co.jp/bustei/12#12_03,0,,
12_04,,表町BC,,34.661395,133.930248,12_04,https://www.unobus.co.jp/bustei/12#12_04,0,,
12_05,,表町BC,,34.661649,133.930329,12_05,https://www.unobus.co.jp/bustei/12#12_05,0,,
12_06,,表町BC,,34.6617175685716,133.930157669197,12_06,https://www.unobus.co.jp/bustei/12#12_06,0,,
12_09,,表町BC,,34.6616275685716,133.930306240626,12_09,https://www.unobus.co.jp/bustei/12#12_09,0,,
14_01,,中銀本店前,,34.662347,133.931,14_01,https://www.unobus.co.jp/bustei/14#14_01,0,,
15_05,,中電前,,34.660463,133.931548,15_05,https://www.unobus.co.jp/bustei/15#15_05,0,,
16_01,,県庁前,,34.662238,133.934469,16_01,https://www.unobus.co.jp/bustei/16#16_01,0,,
16_05,,県庁前,,34.660805,133.934633,16_05,https://www.unobus.co.jp/bustei/16#16_05,0,,
18_01,,朝日高前,,34.661932,133.942239,18_01,https://www.unobus.co.jp/bustei/18#18_01,0,,
18_05,,朝日高前,,34.661685,133.942083,18_05,https://www.unobus.co.jp/bustei/18#18_05,0,,
20_01,,国富,,34.664004,133.944497428571,20_01,https://www.unobus.co.jp/bustei/20#20_01,0,,
20_05,,国富,,34.664846,133.945205,20_05,https://www.unobus.co.jp/bustei/20#20_05,0,,
22_01,,国富東,,34.667335,133.947251285714,22_01,https://www.unobus.co.jp/bustei/22#22_01,0,,
22_05,,国富東,,34.666825,133.946809,22_05,https://www.unobus.co.jp/bustei/22#22_05,0,,
24_01,,原東,,34.669042,133.951189,24_01,https://www.unobus.co.jp/bustei/24#24_01,0,,
24_05,,原東,,34.668601,133.950368,24_05,https://www.unobus.co.jp/bustei/24#24_05,0,,
26_01,,原尾島住宅前,,34.670595,133.954844,26_01,https://www.unobus.co.jp/bustei/26#26_01,0,,
26_05,,原尾島住宅前,,34.670339,133.954651,26_05,https://www.unobus.co.jp/bustei/26#26_05,0,,
28_01,,二本松,,34.67312,133.9586,28_01,https://www.unobus.co.jp/bustei/28#28_01,0,,
28_05,,二本松,,34.673095,133.959008571429,28_05,https://www.unobus.co.jp/bustei/28#28_05,0,,
30_01,,二本松東,,34.673317,133.961970714286,30_01,https://www.unobus.co.jp/bustei/30#30_01,0,,
30_05,,二本松東,,34.673145,133.960969,30_05,https://www.unobus.co.jp/bustei/30#30_05,0,,
32_01,,高屋,,34.673467,133.965313285714,32_01,https://www.unobus.co.jp/bustei/32#32_01,0,,
32_05,,高屋,,34.67335,133.964635,32_05,https://www.unobus.co.jp/bustei/32#32_05,0,,
34_01,,高屋東,,34.673589,133.967611142857,34_01,https://www.unobus.co.jp/bustei/34#34_01,0,,
34_05,,高屋東,,34.673492,133.967572,34_05,https://www.unobus.co.jp/bustei/34#34_05,0,,
36_01,,兼基西,,34.673727,133.970319857143,36_01,https://www.unobus.co.jp/bustei/36#36_01,0,,
36_05,,兼基西,,34.6736,133.97008,36_05,https://www.unobus.co.jp/bustei/36#36_05,0,,
38_01,,兼基,,34.674553,133.974215571429,38_01,https://www.unobus.co.jp/bustei/38#38_01,0,,
38_05,,兼基,,34.674193,133.973623,38_05,https://www.unobus.co.jp/bustei/38#38_05,0,,
40_01,,兼基東,,34.675549,133.976768142857,40_01,https://www.unobus.co.jp/bustei/40#40_01,0,,
40_05,,兼基東,,34.675111,133.975924,40_05,https://www.unobus.co.jp/bustei/40#40_05,0,,
42_01,,乙多見西,,34.676726,133.979705285714,42_01,https://www.unobus.co.jp/bustei/42#42_01,0,,
42_05,,乙多見西,,34.676315,133.979041,42_05,https://www.unobus.co.jp/bustei/42#42_05,0,,
44_01,,乙多見,,34.677817,133.982549,44_01,https://www.unobus.co.jp/bustei/44#44_01,0,,
44_05,,乙多見,,34.677361,133.981694,44_05,https://www.unobus.co.jp/bustei/44#44_05,0,,
46_01,,長岡団地,,34.678726,133.984795,46_01,https://www.unobus.co.jp/bustei/46#46_01,0,,
46_05,,長岡団地,,34.678351,133.984256,46_05,https://www.unobus.co.jp/bustei/46#46_05,0,,
46_09,,長岡団地,,34.6788094273066,133.984884801883,46_09,https://www.unobus.co.jp/bustei/46#46_09,0,,
48_01,,長岡西,,34.680016,133.988071571429,48_01,https://www.unobus.co.jp/bustei/48#48_01,0,,
48_05,,長岡西,,34.679668,133.987421,48_05,https://www.unobus.co.jp/bustei/48#48_05,0,,
50_01,,長岡,,34.681605,133.991009857143,50_01,https://www.unobus.co.jp/bustei/50#50_01,0,,
50_05,,長岡,,34.680757,133.989769,50_05,https://www.unobus.co.jp/bustei/50#50_05,0,,
52_05,,ワールド前,,34.681656,133.991309,52_05,https://www.unobus.co.jp/bustei/52#52_05,0,,
54_01,,宍甘,,34.684046,133.995097,54_01,https://www.unobus.co.jp/bustei/54#54_01,0,,
54_05,,宍甘,,34.683914,133.995131,54_05,https://www.unobus.co.jp/bustei/54#54_05,0,,
56_01,,宿,,34.687076,134.000316,56_01,https://www.unobus.co.jp/bustei/56#56_01,0,,
56_05,,宿,,34.686249,133.999082,56_05,https://www.unobus.co.jp/bustei/56#56_05,0,,
58_01,,積水前,,34.68923,134.003975,58_01,https://www.unobus.co.jp/bustei/58#58_01,0,,
58_05,,積水前,,34.687625,134.001427,58_05,https://www.unobus.co.jp/bustei/58#58_05,0,,
60_05,,三石深井鉄工所前,,34.688998,134.003706142857,60_05,https://www.unobus.co.jp/bustei/60#60_05,0,,
62_01,,藤井,,34.690801,134.006656,62_01,https://www.unobus.co.jp/bustei/62#62_01,0,,
62_05,,藤井,,34.69061,134.006448571429,62_05,https://www.unobus.co.jp/bustei/62#62_05,0,,
64_01,,鉄,,34.69354,134.011327,64_01,https://www.unobus.co.jp/bustei/64#64_01,0,,
64_05,,鉄,,34.693388,134.011257,64_05,https://www.unobus.co.jp/bustei/64#64_05,0,,
66_01,,北方,,34.696752,134.01678,66_01,https://www.unobus.co.jp/bustei/66#66_01,0,,
66_05,,北方,,34.696655,134.016791,66_05,https://www.unobus.co.jp/bustei/66#66_05,0,,
68_01,,中尾,,34.699237,134.021662142857,68_01,https://www.unobus.co.jp/bustei/68#68_01,0,,
68_05,,中尾,,34.69927,134.022042,68_05,https://www.unobus.co.jp/bustei/68#68_05,0,,
70_01,,沼西,,34.700525,134.025416,70_01,https://www.unobus.co.jp/bustei/70#70_01,0,,
70_05,,沼西,,34.701082,134.02756,70_05,https://www.unobus.co.jp/bustei/70#70_05,0,,
72_01,,沼,,34.70249,134.031424714286,72_01,https://www.unobus.co.jp/bustei/72#72_01,0,,
72_05,,沼,,34.702606,134.032115142857,72_05,https://www.unobus.co.jp/bustei/72#72_05,0,,
74_01,,浮田校口,,34.703186,134.035254571429,74_01,https://www.unobus.co.jp/bustei/74#74_01,0,,
74_05,,浮田校口,,34.703139,134.034930714286,74_05,https://www.unobus.co.jp/bustei/74#74_05,0,,
76_01,,八ツ塚,,34.702968,134.038522,76_01,https://www.unobus.co.jp/bustei/76#76_01,0,,
76_05,,八ツ塚,,34.702949,134.037972714286,76_05,https://www.unobus.co.jp/bustei/76#76_05,0,,
78_01,,赤坂,,34.703363,134.043031714286,78_01,https://www.unobus.co.jp/bustei/78#78_01,0,,
78_05,,赤坂,,34.703174,134.042915,78_05,https://www.unobus.co.jp/bustei/78#78_05,0,,
80_01,,南古都,,34.705336,134.047338,80_01,https://www.unobus.co.jp/bustei/80#80_01,0,,
80_05,,南古都,,34.705375,134.047668,80_05,https://www.unobus.co.jp/bustei/80#80_05,0,,
82_01,,平島,,34.706103,134.051764428571,82_01,https://www.unobus.co.jp/bustei/82#82_01,0,,
82_05,,平島,,34.706031,134.051700714286,82_05,https://www.unobus.co.jp/bustei/82#82_05,0,,
84_01,,矢井,,34.7053310000001,134.060956571429,84_01,https://www.unobus.co.jp/bustei/84#84_01,0,,
84_05,,矢井,,34.70524,134.061247,84_05,https://www.unobus.co.jp/bustei/84#84_05,0,,
86_01,,山の端,,34.705277,134.066860428571,86_01,https://www.unobus.co.jp/bustei/86#86_01,0,,
86_05,,山の端,,34.705111,134.066267,86_05,https://www.unobus.co.jp/bustei/86#86_05,0,,
88_01,,浅川,,34.706634,134.071712428571,88_01,https://www.unobus.co.jp/bustei/88#88_01,0,,
88_05,,浅川,,34.706436,134.072111,88_05,https://www.unobus.co.jp/bustei/88#88_05,0,,
90_01,,新町,,34.708275,134.078135285714,90_01,https://www.unobus.co.jp/bustei/90#90_01,0,,
90_05,,新町,,34.70838,134.078669,90_05,https://www.unobus.co.jp/bustei/90#90_05,0,,
92_01,,一日市,,34.710165,134.08254,92_01,https://www.unobus.co.jp/bustei/92#92_01,0,,
92_05,,一日市,,34.709839,134.082028,92_05,https://www.unobus.co.jp/bustei/92#92_05,0,,
94_01,,吉井,,34.714388,134.089117428571,94_01,https://www.unobus.co.jp/bustei/94#94_01,0,,
94_05,,吉井,,34.714576,134.08975,94_05,https://www.unobus.co.jp/bustei/94#94_05,0,,
96_01,,八日市,,34.714869,134.096177,96_01,https://www.unobus.co.jp/bustei/96#96_01,0,,
96_05,,八日市,,34.714759,134.096236,96_05,https://www.unobus.co.jp/bustei/96#96_05,0,,
96_09,,八日市,,34.7150198814633,134.096419571225,96_09,https://www.unobus.co.jp/bustei/96#96_09,0,,
98_01,,天王,,34.721411,134.101503,98_01,https://www.unobus.co.jp/bustei/98#98_01,0,,
98_05,,天王,,34.721342,134.101631,98_05,https://www.unobus.co.jp/bustei/98#98_05,0,,
100_01,,船山,,34.7263176666667,134.108968571429,100_01,https://www.unobus.co.jp/bustei/100#100_01,0,,
100_05,,船山,,34.725966,134.107991,100_05,https://www.unobus.co.jp/bustei/100#100_05,0,,
102_01,,二ノ樋,,34.7271053333333,134.112335952381,102_01,https://www.unobus.co.jp/bustei/102#102_01,0,,
102_05,,二ノ樋,,34.726715,134.110987,102_05,https://www.unobus.co.jp/bustei/102#102_05,0,,
104_01,,香登駅前,,34.728838,134.11987,104_01,https://www.unobus.co.jp/bustei/104#104_01,0,,
104_05,,香登駅前,,34.728525,134.118878,104_05,https://www.unobus.co.jp/bustei/104#104_05,0,,
106_01,,香登東,,34.729914,134.124455,106_01,https://www.unobus.co.jp/bustei/106#106_01,0,,
106_05,,香登東,,34.729874,134.124728,106_05,https://www.unobus.co.jp/bustei/106#106_05,0,,
108_01,,大内,,34.733021,134.134622714286,108_01,https://www.unobus.co.jp/bustei/108#108_01,0,,
108_05,,大内,,34.732737,134.134115,108_05,https://www.unobus.co.jp/bustei/108#108_05,0,,
110_01,,池灘,,34.735238,134.141125857143,110_01,https://www.unobus.co.jp/bustei/110#110_01,0,,
110_05,,池灘,,34.734598,134.139671,110_05,https://www.unobus.co.jp/bustei/110#110_05,0,,
112_01,,備前病院前,,34.7384,134.156262571429,112_01,https://www.unobus.co.jp/bustei/112#112_01,0,,
112_05,,備前病院前,,34.738239,134.15559,112_05,https://www.unobus.co.jp/bustei/112#112_05,0,,
114_01,,伊部駅前,,34.739046,134.160041285714,114_01,https://www.unobus.co.jp/bustei/114#114_01,0,,
114_05,,伊部駅前,,34.738852,134.16005,114_05,https://www.unobus.co.jp/bustei/114#114_05,0,,
116_01,,東伊部,,34.739661,134.162894,116_01,https://www.unobus.co.jp/bustei/116#116_01,0,,
116_05,,東伊部,,34.739758,134.163755,116_05,https://www.unobus.co.jp/bustei/116#116_05,0,,
118_01,,田井山,,34.738308,134.168295,118_01,https://www.unobus.co.jp/bustei/118#118_01,0,,
118_05,,田井山,,34.738363,134.168161,118_05,https://www.unobus.co.jp/bustei/118#118_05,0,,
120_01,,岸本橋,,34.73488,134.174247857143,120_01,https://www.unobus.co.jp/bustei/120#120_01,0,,
120_05,,岸本橋,,34.734675,134.172978,120_05,https://www.unobus.co.jp/bustei/120#120_05,0,,
122_01,,浦伊部,,34.736569,134.177799857143,122_01,https://www.unobus.co.jp/bustei/122#122_01,0,,
122_05,,浦伊部,,34.735916,134.17701,122_05,https://www.unobus.co.jp/bustei/122#122_05,0,,
124_01,,恵美須前,,34.739014,134.179696285714,124_01,https://www.unobus.co.jp/bustei/124#124_01,0,,
124_05,,恵美須前,,34.739234,134.180016,124_05,https://www.unobus.co.jp/bustei/124#124_05,0,,
126_05,,片上,,34.742623,134.184238,126_05,https://www.unobus.co.jp/bustei/126#126_05,0,,
126_09,,片上,,34.7426328535725,134.184183155234,126_09,https://www.unobus.co.jp/bustei/126#126_09,0,,
603_05,,美術館前・RSK本社前,,34.6664151745993,133.930650146054,603_05,https://www.unobus.co.jp/bustei/603#603_05,0,,
192_01,,長岡南,,34.681099,133.988902,192_01,https://www.unobus.co.jp/bustei/192#192_01,0,,
192_05,,長岡南,,34.68126,133.988923,192_05,https://www.unobus.co.jp/bustei/192#192_05,0,,
194_01,,長岡中央,,34.683322,133.987727142857,194_01,https://www.unobus.co.jp/bustei/194#194_01,0,,
194_05,,長岡中央,,34.682513,133.987978,194_05,https://www.unobus.co.jp/bustei/194#194_05,0,,
196_05,,長岡・駅前,,34.685301,133.988069,196_05,https://www.unobus.co.jp/bustei/196#196_05,0,,
196_09,,長岡・駅前,,34.6853135540232,133.988059682198,196_09,https://www.unobus.co.jp/bustei/196#196_09,0,,
200_02,,藤原,,34.674572,133.958288285714,200_02,https://www.unobus.co.jp/bustei/200#200_02,0,,
200_05,,藤原,,34.674144,133.958351,200_05,https://www.unobus.co.jp/bustei/200#200_05,0,,
202_02,,藤原西町,,34.676327,133.958484714286,202_02,https://www.unobus.co.jp/bustei/202#202_02,0,,
202_05,,藤原西町,,34.67637,133.958627,202_05,https://www.unobus.co.jp/bustei/202#202_05,0,,
204_02,,赤田,,34.678161,133.958664428571,204_02,https://www.unobus.co.jp/bustei/204#204_02,0,,
204_05,,赤田,,34.677594,133.958745,204_05,https://www.unobus.co.jp/bustei/204#204_05,0,,
206_02,,清水,,34.680589,133.958878,206_02,https://www.unobus.co.jp/bustei/206#206_02,0,,
206_05,,清水,,34.680114,133.958975,206_05,https://www.unobus.co.jp/bustei/206#206_05,0,,
208_02,,中井,,34.686686,133.958654,208_02,https://www.unobus.co.jp/bustei/208#208_02,0,,
208_05,,中井,,34.68678,133.958809,208_05,https://www.unobus.co.jp/bustei/208#208_05,0,,
210_02,,中井北,,34.688826,133.958538,210_02,https://www.unobus.co.jp/bustei/210#210_02,0,,
210_05,,中井北,,34.688751,133.958726,210_05,https://www.unobus.co.jp/bustei/210#210_05,0,,
212_02,,国府市場西,,34.690757,133.958503285714,212_02,https://www.unobus.co.jp/bustei/212#212_02,0,,
212_05,,国府市場西,,34.690577,133.958583571429,212_05,https://www.unobus.co.jp/bustei/212#212_05,0,,
214_02,,国府市場,,34.691619,133.961582428571,214_02,https://www.unobus.co.jp/bustei/214#214_02,0,,
214_05,,国府市場,,34.69151,133.960173,214_05,https://www.unobus.co.jp/bustei/214#214_05,0,,
216_02,,賞田,,34.693846,133.96171,216_02,https://www.unobus.co.jp/bustei/216#216_02,0,,
216_05,,賞田,,34.69383,133.961815,216_05,https://www.unobus.co.jp/bustei/216#216_05,0,,
218_02,,賞田上,,34.696007,133.961595285714,218_02,https://www.unobus.co.jp/bustei/218#218_02,0,,
218_05,,賞田上,,34.695582,133.961709714286,218_05,https://www.unobus.co.jp/bustei/218#218_05,0,,
220_02,,脇田,,34.69709,133.961555,220_02,https://www.unobus.co.jp/bustei/220#220_02,0,,
220_05,,脇田,,34.69706,133.961606428571,220_05,https://www.unobus.co.jp/bustei/220#220_05,0,,
222_02,,浄土寺前,,34.697447,133.965490714286,222_02,https://www.unobus.co.jp/bustei/222#222_02,0,,
222_05,,浄土寺前,,34.697407,133.965445,222_05,https://www.unobus.co.jp/bustei/222#222_05,0,,
224_02,,公会堂前,,34.697193,133.96858,224_02,https://www.unobus.co.jp/bustei/224#224_02,0,,
224_05,,公会堂前,,34.697168,133.96858,224_05,https://www.unobus.co.jp/bustei/224#224_05,0,,
226_02,,湯迫,,34.698056,133.970953571429,226_02,https://www.unobus.co.jp/bustei/226#226_02,0,,
226_05,,湯迫,,34.698021,133.970965,226_05,https://www.unobus.co.jp/bustei/226#226_05,0,,
228_02,,湯迫東,,34.698241,133.974516,228_02,https://www.unobus.co.jp/bustei/228#228_02,0,,
228_05,,湯迫東,,34.698241,133.974251,228_05,https://www.unobus.co.jp/bustei/228#228_05,0,,
230_02,,東が丘西,,34.698081,133.975995714286,230_02,https://www.unobus.co.jp/bustei/230#230_02,0,,
230_05,,東が丘西,,34.698031,133.97599,230_05,https://www.unobus.co.jp/bustei/230#230_05,0,,
232_02,,東が丘団地入口,,34.697533,133.977755,232_02,https://www.unobus.co.jp/bustei/232#232_02,0,,
232_05,,東が丘団地入口,,34.697533,133.977581,232_05,https://www.unobus.co.jp/bustei/232#232_05,0,,
234_02,,東が丘団地,,34.69975,133.97891,234_02,https://www.unobus.co.jp/bustei/234#234_02,0,,
234_05,,東が丘団地,,34.699653,133.979149,234_05,https://www.unobus.co.jp/bustei/234#234_05,0,,
236_02,,東が丘団地中,,34.699247,133.980865,236_02,https://www.unobus.co.jp/bustei/236#236_02,0,,
236_05,,東が丘団地中,,34.69927,133.980634,236_05,https://www.unobus.co.jp/bustei/236#236_05,0,,
238_02,,四御神西,,34.698273,133.98189,238_02,https://www.unobus.co.jp/bustei/238#238_02,0,,
238_05,,四御神西,,34.698317,133.98178,238_05,https://www.unobus.co.jp/bustei/238#238_05,0,,
240_02,,四御神上,,34.696698,133.982055714286,240_02,https://www.unobus.co.jp/bustei/240#240_02,0,,
240_05,,四御神上,,34.696708,133.98201,240_05,https://www.unobus.co.jp/bustei/240#240_05,0,,
242_02,,四御神,,34.695075,133.982051,242_02,https://www.unobus.co.jp/bustei/242#242_02,0,,
242_05,,四御神,,34.69511,133.981989,242_05,https://www.unobus.co.jp/bustei/242#242_05,0,,
244_02,,竜の口ｺﾐｭﾆﾃｨﾊｳｽ入口,,34.693568,133.981596428571,244_02,https://www.unobus.co.jp/bustei/244#244_02,0,,
244_05,,竜の口ｺﾐｭﾆﾃｨﾊｳｽ入口,,34.694044,133.981572,244_05,https://www.unobus.co.jp/bustei/244#244_05,0,,
246_02,,四御神南,,34.692442,133.981605,246_02,https://www.unobus.co.jp/bustei/246#246_02,0,,
246_05,,四御神南,,34.692512,133.981579428571,246_05,https://www.unobus.co.jp/bustei/246#246_05,0,,
248_05,,四御神車庫,,34.691699,133.981635,248_05,https://www.unobus.co.jp/bustei/248#248_05,0,,
248_09,,四御神車庫,,34.6916050539048,133.981699347496,248_09,https://www.unobus.co.jp/bustei/248#248_09,0,,
249_05,,四御神車庫(東岡山),,34.691699,133.981635,249_05,https://www.unobus.co.jp/bustei/249#249_05,0,,
249_09,,四御神車庫(東岡山),,34.6916468215537,133.981649901728,249_09,https://www.unobus.co.jp/bustei/249#249_09,0,,
306_03,,岡山駅前・中銀前,,34.665419,133.920933714286,306_03,https://www.unobus.co.jp/bustei/306#306_03,0,,
310_04,,県民局入口,,34.669684,133.926161714286,310_04,https://www.unobus.co.jp/bustei/310#310_04,0,,
311_04,,岡電柳川,,34.666909,133.926147428571,311_04,https://www.unobus.co.jp/bustei/311#311_04,0,,
312_04,,番町口,,34.672098,133.926259,312_04,https://www.unobus.co.jp/bustei/312#312_04,0,,
312_05,,番町口,,34.672257,133.926417,312_05,https://www.unobus.co.jp/bustei/312#312_05,0,,
314_04,,南方交番前,,34.67469,133.926302714286,314_04,https://www.unobus.co.jp/bustei/314#314_04,0,,
314_05,,南方交番前,,34.674584,133.926397,314_05,https://www.unobus.co.jp/bustei/314#314_05,0,,
316_04,,長泉寺,,34.677644,133.927892142857,316_04,https://www.unobus.co.jp/bustei/316#316_04,0,,
316_05,,長泉寺,,34.677643,133.928070285714,316_05,https://www.unobus.co.jp/bustei/316#316_05,0,,
318_04,,大和町,,34.679806,133.928213428571,318_04,https://www.unobus.co.jp/bustei/318#318_04,0,,
318_05,,大和町,,34.679429,133.928300857143,318_05,https://www.unobus.co.jp/bustei/318#318_05,0,,
319_04,,御野校前,,34.682911,133.928289142857,319_04,https://www.unobus.co.jp/bustei/319#319_04,0,,
319_05,,御野校前,,34.682706,133.928367,319_05,https://www.unobus.co.jp/bustei/319#319_05,0,,
320_04,,法界院駅前,,34.685329,133.928408571429,320_04,https://www.unobus.co.jp/bustei/320#320_04,0,,
320_05,,法界院駅前,,34.685423,133.928522857143,320_05,https://www.unobus.co.jp/bustei/320#320_05,0,,
322_04,,植物園口,,34.688737,133.931694714286,322_04,https://www.unobus.co.jp/bustei/322#322_04,0,,
322_05,,植物園口,,34.688663,133.931680857143,322_05,https://www.unobus.co.jp/bustei/322#322_05,0,,
324_04,,水源池,,34.690871,133.934496714286,324_04,https://www.unobus.co.jp/bustei/324#324_04,0,,
324_05,,水源池,,34.690974,133.934734857143,324_05,https://www.unobus.co.jp/bustei/324#324_05,0,,
326_04,,三野,,34.693359,133.938358857143,326_04,https://www.unobus.co.jp/bustei/326#326_04,0,,
326_05,,三野,,34.693402,133.938597142857,326_05,https://www.unobus.co.jp/bustei/326#326_05,0,,
328_04,,江川,,34.700076,133.943411,328_04,https://www.unobus.co.jp/bustei/328#328_04,0,,
328_05,,江川,,34.700292,133.943616142857,328_05,https://www.unobus.co.jp/bustei/328#328_05,0,,
330_04,,原,,34.706444,133.946611428571,330_04,https://www.unobus.co.jp/bustei/330#330_04,0,,
330_05,,原,,34.706216,133.946779,330_05,https://www.unobus.co.jp/bustei/330#330_05,0,,
332_04,,金山口,,34.712506,133.952341857143,332_04,https://www.unobus.co.jp/bustei/332#332_04,0,,
332_05,,金山口,,34.711547,133.951527714286,332_05,https://www.unobus.co.jp/bustei/332#332_05,0,,
334_04,,玉柏,,34.71502,133.961932,334_04,https://www.unobus.co.jp/bustei/334#334_04,0,,
334_05,,玉柏,,34.714915,133.962099857143,334_05,https://www.unobus.co.jp/bustei/334#334_05,0,,
336_04,,大原橋,,34.717013,133.967315714286,336_04,https://www.unobus.co.jp/bustei/336#336_04,0,,
336_05,,大原橋,,34.717745,133.968351857143,336_05,https://www.unobus.co.jp/bustei/336#336_05,0,,
338_04,,大原,,34.716961,133.973819142857,338_04,https://www.unobus.co.jp/bustei/338#338_04,0,,
338_05,,大原,,34.71727,133.974036,338_05,https://www.unobus.co.jp/bustei/338#338_05,0,,
340_04,,牟佐下,,34.722427,133.975714857143,340_04,https://www.unobus.co.jp/bustei/340#340_04,0,,
340_05,,牟佐下,,34.722536,133.975956571428,340_05,https://www.unobus.co.jp/bustei/340#340_05,0,,
342_04,,牟佐上,,34.725049,133.980642,342_04,https://www.unobus.co.jp/bustei/342#342_04,0,,
342_05,,牟佐上,,34.724912,133.980551,342_05,https://www.unobus.co.jp/bustei/342#342_05,0,,
343_04,,岡山東部脳神経外科病院前,,34.725741,133.982005,343_04,https://www.unobus.co.jp/bustei/343#343_04,0,,
343_05,,岡山東部脳神経外科病院前,,34.725717,133.982102,343_05,https://www.unobus.co.jp/bustei/343#343_05,0,,
344_04,,黒田団地,,34.727395,133.985202,344_04,https://www.unobus.co.jp/bustei/344#344_04,0,,
344_05,,黒田団地,,34.727012,133.984814857143,344_05,https://www.unobus.co.jp/bustei/344#344_05,0,,
348_04,,馬屋下,,34.732132,133.992256,348_04,https://www.unobus.co.jp/bustei/348#348_04,0,,
348_05,,馬屋下,,34.731951,133.992171,348_05,https://www.unobus.co.jp/bustei/348#348_05,0,,
350_04,,馬屋,,34.734371,133.996787428571,350_04,https://www.unobus.co.jp/bustei/350#350_04,0,,
350_05,,馬屋,,34.733571,133.995643142857,350_05,https://www.unobus.co.jp/bustei/350#350_05,0,,
351_04,,新道穂崎下,,34.737143,134.003285,351_04,https://www.unobus.co.jp/bustei/351#351_04,0,,
351_05,,新道穂崎下,,34.736758,134.001362285714,351_05,https://www.unobus.co.jp/bustei/351#351_05,0,,
352_04,,岩田,,34.739367,134.006393714286,352_04,https://www.unobus.co.jp/bustei/352#352_04,0,,
352_05,,岩田,,34.739223,134.006486714286,352_05,https://www.unobus.co.jp/bustei/352#352_05,0,,
353_04,,新道穂崎,,34.737466,134.006373,353_04,https://www.unobus.co.jp/bustei/353#353_04,0,,
353_05,,新道穂崎,,34.737077,134.006228,353_05,https://www.unobus.co.jp/bustei/353#353_05,0,,
514_05,,駅前町,,34.667497,133.9197,514_05,https://www.unobus.co.jp/bustei/514#514_05,0,,
516_05,,裁判所前,,34.671127,133.923807,516_05,https://www.unobus.co.jp/bustei/516#516_05,0,,
552_04,,白鷺団地,,34.729062,133.987542571429,552_04,https://www.unobus.co.jp/bustei/552#552_04,0,,
552_05,,白鷺団地,,34.728679,133.987102428571,552_05,https://www.unobus.co.jp/bustei/552#552_05,0,,
560_04,,山陽団地西１番,,34.743114,134.004450714286,560_04,https://www.unobus.co.jp/bustei/560#560_04,0,,
560_05,,山陽団地西１番,,34.743148,134.004777,560_05,https://www.unobus.co.jp/bustei/560#560_05,0,,
562_04,,山陽団地西２番,,34.743962,134.003058428571,562_04,https://www.unobus.co.jp/bustei/562#562_04,0,,
562_05,,山陽団地西２番,,34.744072,134.003007,562_05,https://www.unobus.co.jp/bustei/562#562_05,0,,
564_04,,山陽団地西３番,,34.745793,134.001436,564_04,https://www.unobus.co.jp/bustei/564#564_04,0,,
564_05,,山陽団地西３番,,34.745918,134.001487142857,564_05,https://www.unobus.co.jp/bustei/564#564_05,0,,
566_04,,足王神社口,,34.748155,134.001592285714,566_04,https://www.unobus.co.jp/bustei/566#566_04,0,,
566_05,,足王神社口,,34.747799,134.001605,566_05,https://www.unobus.co.jp/bustei/566#566_05,0,,
568_04,,山陽団地西４番,,34.749319,134.001645285714,568_04,https://www.unobus.co.jp/bustei/568#568_04,0,,
568_05,,山陽団地西４番,,34.749208,134.001669,568_05,https://www.unobus.co.jp/bustei/568#568_05,0,,
570_04,,山陽団地西５番,,34.7518,134.002598285714,570_04,https://www.unobus.co.jp/bustei/570#570_04,0,,
570_05,,山陽団地西５番,,34.751348,134.002512,570_05,https://www.unobus.co.jp/bustei/570#570_05,0,,
572_04,,山陽団地西６番,,34.752571,134.003650571429,572_04,https://www.unobus.co.jp/bustei/572#572_04,0,,
572_05,,山陽団地西６番,,34.752531,134.004025,572_05,https://www.unobus.co.jp/bustei/572#572_05,0,,
574_04,,山陽団地西７番,,34.752609,134.005902714286,574_04,https://www.unobus.co.jp/bustei/574#574_04,0,,
574_05,,山陽団地西７番,,34.752519,134.005961,574_05,https://www.unobus.co.jp/bustei/574#574_05,0,,
586_04,,山陽団地東,,34.753636,134.008768,586_04,https://www.unobus.co.jp/bustei/586#586_04,0,,
586_05,,山陽団地東,,34.7535766666667,134.008612428571,586_05,https://www.unobus.co.jp/bustei/586#586_05,0,,
588_04,,老人福祉センター,,34.753984,134.010721,588_04,https://www.unobus.co.jp/bustei/588#588_04,0,,
588_05,,老人福祉センター,,34.753879,134.010496857143,588_05,https://www.unobus.co.jp/bustei/588#588_05,0,,
590_04,,下市上,,34.754557,134.01442,590_04,https://www.unobus.co.jp/bustei/590#590_04,0,,
590_05,,下市上,,34.7544963333333,134.014217428571,590_05,https://www.unobus.co.jp/bustei/590#590_05,0,,
600_03,,就実高校中学校前,,34.67132,133.928557714286,600_03,https://www.unobus.co.jp/bustei/600#600_03,0,,
600_05,,就実高校中学校前,,34.671204,133.929014285714,600_05,https://www.unobus.co.jp/bustei/600#600_05,0,,
602_03,,RSK本社前・美術館前,,34.666835,133.930408,602_03,https://www.unobus.co.jp/bustei/602#602_03,0,,
604_03,,弓之町,,34.670564,133.93019,604_03,https://www.unobus.co.jp/bustei/604#604_03,0,,
604_05,,弓之町,,34.670357,133.930375,604_05,https://www.unobus.co.jp/bustei/604#604_05,0,,
618_03,,中島,,34.686053,133.944225,618_03,https://www.unobus.co.jp/bustei/618#618_03,0,,
618_05,,中島,,34.685904,133.944453,618_05,https://www.unobus.co.jp/bustei/618#618_05,0,,
620_03,,中島上,,34.68639,133.946984571429,620_03,https://www.unobus.co.jp/bustei/620#620_03,0,,
620_05,,中島上,,34.686059,133.94543,620_05,https://www.unobus.co.jp/bustei/620#620_05,0,,
622_03,,高島団地,,34.686068,133.950044,622_03,https://www.unobus.co.jp/bustei/622#622_03,0,,
622_05,,高島団地,,34.686009,133.950014,622_05,https://www.unobus.co.jp/bustei/622#622_05,0,,
624_03,,保育所前,,34.684577,133.95076,624_03,https://www.unobus.co.jp/bustei/624#624_03,0,,
624_05,,保育所前,,34.685261,133.950748,624_05,https://www.unobus.co.jp/bustei/624#624_05,0,,
626_03,,児童公園前,,34.683169,133.951157,626_03,https://www.unobus.co.jp/bustei/626#626_03,0,,
626_05,,児童公園前,,34.683098,133.951053,626_05,https://www.unobus.co.jp/bustei/626#626_05,0,,
628_03,,新屋敷団地西,,34.682921,133.952688,628_03,https://www.unobus.co.jp/bustei/628#628_03,0,,
628_05,,新屋敷団地西,,34.682872,133.952998,628_05,https://www.unobus.co.jp/bustei/628#628_05,0,,
630_03,,新屋敷団地中,,34.683079,133.954630285714,630_03,https://www.unobus.co.jp/bustei/630#630_03,0,,
630_05,,新屋敷団地中,,34.683022,133.954756,630_05,https://www.unobus.co.jp/bustei/630#630_05,0,,
632_03,,新屋敷団地,,34.683399,133.958279,632_03,https://www.unobus.co.jp/bustei/632#632_03,0,,
632_05,,新屋敷団地,,34.683291,133.957938,632_05,https://www.unobus.co.jp/bustei/632#632_05,0,,
634_03,,中井南,,34.683763,133.962755,634_03,https://www.unobus.co.jp/bustei/634#634_03,0,,
634_05,,中井南,,34.68364,133.961891,634_05,https://www.unobus.co.jp/bustei/634#634_05,0,,
636_03,,藤の里,,34.683986,133.965082285714,636_03,https://www.unobus.co.jp/bustei/636#636_03,0,,
636_05,,藤の里,,34.683927,133.964876,636_05,https://www.unobus.co.jp/bustei/636#636_05,0,,
638_03,,雄町西,,34.684239,133.967563142857,638_03,https://www.unobus.co.jp/bustei/638#638_03,0,,
638_05,,雄町西,,34.684101,133.96691,638_05,https://www.unobus.co.jp/bustei/638#638_05,0,,
640_03,,雄町中,,34.684573,133.971424,640_03,https://www.unobus.co.jp/bustei/640#640_03,0,,
640_05,,雄町中,,34.68441,133.970276,640_05,https://www.unobus.co.jp/bustei/640#640_05,0,,
642_03,,雄町,,34.685078,133.976676,642_03,https://www.unobus.co.jp/bustei/642#642_03,0,,
642_05,,雄町,,34.684939,133.975895,642_05,https://www.unobus.co.jp/bustei/642#642_05,0,,
644_03,,雄町東,,34.68527,133.978951,644_03,https://www.unobus.co.jp/bustei/644#644_03,0,,
644_05,,雄町東,,34.685212,133.978739,644_05,https://www.unobus.co.jp/bustei/644#644_05,0,,
646_03,,コウリョー前,,34.685581,133.982107,646_03,https://www.unobus.co.jp/bustei/646#646_03,0,,
646_05,,コウリョー前,,34.685493,133.981788,646_05,https://www.unobus.co.jp/bustei/646#646_05,0,,
648_03,,東岡山駅前,,34.685985,133.98605,648_03,https://www.unobus.co.jp/bustei/648#648_03,0,,
648_05,,東岡山駅前,,34.68583,133.985401,648_05,https://www.unobus.co.jp/bustei/648#648_05,0,,
650_03,,前土田,,34.689013,133.987869142857,650_03,https://www.unobus.co.jp/bustei/650#650_03,0,,
650_05,,前土田,,34.688859,133.987898,650_05,https://www.unobus.co.jp/bustei/650#650_05,0,,
652_03,,ろう学校前,,34.691908,133.987933,652_03,https://www.unobus.co.jp/bustei/652#652_03,0,,
652_05,,ろう学校前,,34.692079,133.987985,652_05,https://www.unobus.co.jp/bustei/652#652_05,0,,
658_03,,岡山東支援学校口,,34.693696,133.987844857143,658_03,https://www.unobus.co.jp/bustei/658#658_03,0,,
658_05,,岡山東支援学校口,,34.694005,133.987187142857,658_05,https://www.unobus.co.jp/bustei/658#658_05,0,,
660_03,,土田東,,34.693995,133.986062,660_03,https://www.unobus.co.jp/bustei/660#660_03,0,,
660_05,,土田東,,34.694079,133.985778,660_05,https://www.unobus.co.jp/bustei/660#660_05,0,,
662_03,,土田,,34.693452,133.982801,662_03,https://www.unobus.co.jp/bustei/662#662_03,0,,
662_05,,土田,,34.693508,133.983171,662_05,https://www.unobus.co.jp/bustei/662#662_05,0,,
664_03,,四御神南(東岡山),,34.692443,133.981606,664_03,https://www.unobus.co.jp/bustei/664#664_03,0,,
664_05,,四御神南(東岡山),,34.69252,133.981552857143,664_05,https://www.unobus.co.jp/bustei/664#664_05,0,,
670_03,,浜（岡山プラザホテル前）,,34.671228,133.936254142857,670_03,https://www.unobus.co.jp/bustei/670#670_03,0,,
670_05,,浜（岡山プラザホテル前）,,34.671151,133.936223,670_05,https://www.unobus.co.jp/bustei/670#670_05,0,,
672_03,,岡山中央警察署前,,34.671188,133.939343714286,672_03,https://www.unobus.co.jp/bustei/672#672_03,0,,
672_05,,岡山中央警察署前,,34.671109,133.938424,672_05,https://www.unobus.co.jp/bustei/672#672_05,0,,
674_03,,岡山市中区役所前,,34.671156,133.942218,674_03,https://www.unobus.co.jp/bustei/674#674_03,0,,
674_05,,岡山市中区役所前,,34.671069,133.942880714286,674_05,https://www.unobus.co.jp/bustei/674#674_05,0,,
676_03,,OHKハウジングパーク前,,34.672364,133.943717285714,676_03,https://www.unobus.co.jp/bustei/676#676_03,0,,
676_05,,OHKハウジングパーク前,,34.672746,133.94394,676_05,https://www.unobus.co.jp/bustei/676#676_05,0,,
678_03,,林病院入口,,34.673806,133.943934857143,678_03,https://www.unobus.co.jp/bustei/678#678_03,0,,
678_05,,林病院入口,,34.673751,133.944097,678_05,https://www.unobus.co.jp/bustei/678#678_05,0,,
680_03,,エディオン東川原店前,,34.675129,133.944111857143,680_03,https://www.unobus.co.jp/bustei/680#680_03,0,,
680_05,,エディオン東川原店前,,34.675615,133.944336,680_05,https://www.unobus.co.jp/bustei/680#680_05,0,,
682_03,,コープ東川原店前,,34.676636,133.944158,682_03,https://www.unobus.co.jp/bustei/682#682_03,0,,
682_05,,コープ東川原店前,,34.676718,133.944322,682_05,https://www.unobus.co.jp/bustei/682#682_05,0,,
684_03,,ジョイフル東川原店前,,34.678545,133.943928285714,684_03,https://www.unobus.co.jp/bustei/684#684_03,0,,
684_05,,ジョイフル東川原店前,,34.678529,133.944116,684_05,https://www.unobus.co.jp/bustei/684#684_05,0,,
686_03,,西川原,,34.679649,133.942812714286,686_03,https://www.unobus.co.jp/bustei/686#686_03,0,,
686_05,,西川原,,34.680007,133.942593,686_05,https://www.unobus.co.jp/bustei/686#686_05,0,,
688_03,,岡山ハートクリニック前,,34.680791,133.939743714286,688_03,https://www.unobus.co.jp/bustei/688#688_03,0,,
688_05,,岡山ハートクリニック前,,34.680917,133.940087,688_05,https://www.unobus.co.jp/bustei/688#688_05,0,,
690_03,,新中島竹田橋,,34.682371,133.939815571429,690_03,https://www.unobus.co.jp/bustei/690#690_03,0,,
690_05,,新中島竹田橋,,34.682317,133.939927,690_05,https://www.unobus.co.jp/bustei/690#690_05,0,,
700_01,,瀬戸線平島,,34.706459,134.053772857143,700_01,https://www.unobus.co.jp/bustei/700#700_01,0,,
702_01,,東平島下,,34.709093,134.050818142857,702_01,https://www.unobus.co.jp/bustei/702#702_01,0,,
702_05,,東平島下,,34.708626,134.051187571429,702_05,https://www.unobus.co.jp/bustei/702#702_05,0,,
704_01,,パナソニック前,,34.710501,134.050058714286,704_01,https://www.unobus.co.jp/bustei/704#704_01,0,,
704_05,,パナソニック前,,34.71029,134.050214857143,704_05,https://www.unobus.co.jp/bustei/704#704_05,0,,
706_01,,東平島,,34.712722,134.048845714286,706_01,https://www.unobus.co.jp/bustei/706#706_01,0,,
706_05,,東平島,,34.71229,134.049165,706_05,https://www.unobus.co.jp/bustei/706#706_05,0,,
708_01,,東平島上,,34.715218,134.047572428571,708_01,https://www.unobus.co.jp/bustei/708#708_01,0,,
708_05,,東平島上,,34.715086,134.047682,708_05,https://www.unobus.co.jp/bustei/708#708_05,0,,
710_01,,砂場,,34.71872,134.045733857143,710_01,https://www.unobus.co.jp/bustei/710#710_01,0,,
710_05,,砂場,,34.719224,134.045461,710_05,https://www.unobus.co.jp/bustei/710#710_05,0,,
712_01,,沖下,,34.721482,134.043977285714,712_01,https://www.unobus.co.jp/bustei/712#712_01,0,,
712_05,,沖下,,34.721105,134.044278,712_05,https://www.unobus.co.jp/bustei/712#712_05,0,,
714_01,,瀬戸南高,,34.724181,134.04227,714_01,https://www.unobus.co.jp/bustei/714#714_01,0,,
714_05,,瀬戸南高,,34.723984,134.042478142857,714_05,https://www.unobus.co.jp/bustei/714#714_05,0,,
716_01,,沖,,34.725333,134.041384,716_01,https://www.unobus.co.jp/bustei/716#716_01,0,,
716_05,,沖,,34.725113,134.041628428571,716_05,https://www.unobus.co.jp/bustei/716#716_05,0,,
718_01,,竹久工業前,,34.726804,134.040201857143,718_01,https://www.unobus.co.jp/bustei/718#718_01,0,,
718_05,,竹久工業前,,34.726785,134.040274857143,718_05,https://www.unobus.co.jp/bustei/718#718_05,0,,
720_01,,瀬戸西,,34.731386,134.037776,720_01,https://www.unobus.co.jp/bustei/720#720_01,0,,
720_05,,瀬戸西,,34.73198,134.038407428571,720_05,https://www.unobus.co.jp/bustei/720#720_05,0,,
722_01,,瀬戸駅前,,34.735031,134.041230428571,722_01,https://www.unobus.co.jp/bustei/722#722_01,0,,
722_05,,瀬戸駅前,,34.734735,134.040995428571,722_05,https://www.unobus.co.jp/bustei/722#722_05,0,,
724_01,,瀬戸駅,,34.735061,134.041886285714,724_01,https://www.unobus.co.jp/bustei/724#724_01,0,,
724_05,,瀬戸駅,,34.734993,134.041849285714,724_05,https://www.unobus.co.jp/bustei/724#724_05,0,,
726_01,,赤磐警察署前,,34.737517,134.041677428571,726_01,https://www.unobus.co.jp/bustei/726#726_01,0,,
726_05,,赤磐警察署前,,34.737123,134.040619142858,726_05,https://www.unobus.co.jp/bustei/726#726_05,0,,
728_01,,瀬戸郵便局前,,34.736662,134.039641857143,728_01,https://www.unobus.co.jp/bustei/728#728_01,0,,
728_05,,瀬戸郵便局前,,34.736511,134.038625571429,728_05,https://www.unobus.co.jp/bustei/728#728_05,0,,
730_01,,瀬戸橋,,34.736083,134.034155714286,730_01,https://www.unobus.co.jp/bustei/730#730_01,0,,
730_05,,瀬戸橋,,34.736479,134.034051714286,730_05,https://www.unobus.co.jp/bustei/730#730_05,0,,
732_01,,舟廻,,34.743579,134.029071,732_01,https://www.unobus.co.jp/bustei/732#732_01,0,,
732_05,,舟廻,,34.74262,134.030248,732_05,https://www.unobus.co.jp/bustei/732#732_05,0,,
734_01,,立川,,34.746676,134.025951,734_01,https://www.unobus.co.jp/bustei/734#734_01,0,,
734_05,,立川,,34.746648,134.026249,734_05,https://www.unobus.co.jp/bustei/734#734_05,0,,
736_01,,医師会病院前,,34.751123,134.020136,736_01,https://www.unobus.co.jp/bustei/736#736_01,0,,
736_05,,医師会病院前,,34.751262,134.020265142857,736_05,https://www.unobus.co.jp/bustei/736#736_05,0,,
738_04,,瀬戸線下市,,34.752533,134.018516,738_04,https://www.unobus.co.jp/bustei/738#738_04,0,,
740_01,,ネオポリス線下市,,34.753098,134.018135,740_01,https://www.unobus.co.jp/bustei/740#740_01,0,,
740_05,,ネオポリス線下市,,34.753125,134.018223571429,740_05,https://www.unobus.co.jp/bustei/740#740_05,0,,
742_01,,赤磐市役所前,,34.755302,134.019594,742_01,https://www.unobus.co.jp/bustei/742#742_01,0,,
742_05,,赤磐市役所前,,34.755531,134.019948,742_05,https://www.unobus.co.jp/bustei/742#742_05,0,,
744_01,,高屋（ネオ）,,34.757758,134.022458714286,744_01,https://www.unobus.co.jp/bustei/744#744_01,0,,
744_05,,高屋（ネオ）,,34.757754,134.022489,744_05,https://www.unobus.co.jp/bustei/744#744_05,0,,
746_01,,高屋上,,34.7591356666667,134.023883857143,746_01,https://www.unobus.co.jp/bustei/746#746_01,0,,
746_05,,高屋上,,34.75903,134.023898,746_05,https://www.unobus.co.jp/bustei/746#746_05,0,,
748_01,,沼田,,34.760939,134.026521714286,748_01,https://www.unobus.co.jp/bustei/748#748_01,0,,
748_05,,沼田,,34.761008,134.026686714286,748_05,https://www.unobus.co.jp/bustei/748#748_05,0,,
750_01,,二井口,,34.762633,134.028185428571,750_01,https://www.unobus.co.jp/bustei/750#750_01,0,,
750_05,,二井口,,34.762545,134.028081714286,750_05,https://www.unobus.co.jp/bustei/750#750_05,0,,
752_05,,日古木・中島口,,34.76336,134.033024714286,752_05,https://www.unobus.co.jp/bustei/752#752_05,0,,
752_06,,日古木・中島口,,34.763531,134.033106,752_06,https://www.unobus.co.jp/bustei/752#752_06,0,,
754_05,,桜が丘西一丁目,,34.765634,134.04004,754_05,https://www.unobus.co.jp/bustei/754#754_05,0,,
754_06,,桜が丘西一丁目,,34.765694,134.039955,754_06,https://www.unobus.co.jp/bustei/754#754_06,0,,
756_05,,桜が丘西一丁目上,,34.766619,134.041064,756_05,https://www.unobus.co.jp/bustei/756#756_05,0,,
756_06,,桜が丘西一丁目上,,34.76698,134.041113,756_06,https://www.unobus.co.jp/bustei/756#756_06,0,,
758_05,,桜が丘西二丁目,,34.767997,134.041907,758_05,https://www.unobus.co.jp/bustei/758#758_05,0,,
758_06,,桜が丘西二丁目,,34.768675,134.041888,758_06,https://www.unobus.co.jp/bustei/758#758_06,0,,
760_05,,桜が丘西三丁目,,34.771263,134.040618285714,760_05,https://www.unobus.co.jp/bustei/760#760_05,0,,
760_06,,桜が丘西三丁目,,34.77122,134.040363142857,760_06,https://www.unobus.co.jp/bustei/760#760_06,0,,
762_05,,桜が丘西三丁目上,,34.7728933333333,134.039217333333,762_05,https://www.unobus.co.jp/bustei/762#762_05,0,,
762_06,,桜が丘西三丁目上,,34.772868,134.039074,762_06,https://www.unobus.co.jp/bustei/762#762_06,0,,
764_05,,桜が丘西五丁目,,34.776695,134.038385428571,764_05,https://www.unobus.co.jp/bustei/764#764_05,0,,
764_06,,桜が丘西五丁目,,34.77659,134.038222,764_06,https://www.unobus.co.jp/bustei/764#764_06,0,,
766_05,,桜が丘西六丁目,,34.777984,134.038226714286,766_05,https://www.unobus.co.jp/bustei/766#766_05,0,,
766_06,,桜が丘西六丁目,,34.777936,134.038111,766_06,https://www.unobus.co.jp/bustei/766#766_06,0,,
768_05,,桜が丘中央,,34.780971,134.038213,768_05,https://www.unobus.co.jp/bustei/768#768_05,0,,
768_06,,桜が丘中央,,34.780818,134.037996,768_06,https://www.unobus.co.jp/bustei/768#768_06,0,,
770_05,,桜が丘東五丁目,,34.782748,134.038183714286,770_05,https://www.unobus.co.jp/bustei/770#770_05,0,,
770_06,,桜が丘東五丁目,,34.783248,134.038074142857,770_06,https://www.unobus.co.jp/bustei/770#770_06,0,,
772_05,,桜が丘東六丁目,,34.785946,134.038593,772_05,https://www.unobus.co.jp/bustei/772#772_05,0,,
772_06,,桜が丘東六丁目,,34.784985,134.038184666667,772_06,https://www.unobus.co.jp/bustei/772#772_06,0,,
774_05,,桜が丘東六丁目上,,34.787808,134.039628,774_05,https://www.unobus.co.jp/bustei/774#774_05,0,,
774_06,,桜が丘東六丁目上,,34.788428,134.039949,774_06,https://www.unobus.co.jp/bustei/774#774_06,0,,
776_05,,保育園前,,34.789346,134.04086,776_05,https://www.unobus.co.jp/bustei/776#776_05,0,,
776_06,,保育園前,,34.789831,134.041189,776_06,https://www.unobus.co.jp/bustei/776#776_06,0,,
778_05,,野間,,34.790532,134.042157428571,778_05,https://www.unobus.co.jp/bustei/778#778_05,0,,
778_09,,野間,,34.7911139020656,134.042564034462,778_09,https://www.unobus.co.jp/bustei/778#778_09,0,,
780_05,,桜が丘西10丁目東,,34.781378,134.037639,780_05,https://www.unobus.co.jp/bustei/780#780_05,0,,
780_06,,桜が丘西10丁目東,,34.781245,134.037394,780_06,https://www.unobus.co.jp/bustei/780#780_06,0,,
782_05,,桜が丘西10丁目中,,34.781341,134.035757,782_05,https://www.unobus.co.jp/bustei/782#782_05,0,,
782_06,,桜が丘西10丁目中,,34.781216,134.035477,782_06,https://www.unobus.co.jp/bustei/782#782_06,0,,
784_05,,桜が丘西10丁目西,,34.7805566666667,134.032781952381,784_05,https://www.unobus.co.jp/bustei/784#784_05,0,,
784_06,,桜が丘西10丁目西,,34.78084,134.033772428571,784_06,https://www.unobus.co.jp/bustei/784#784_06,0,,
786_05,,桜が丘西９丁目東,,34.7798326666667,134.031578285714,786_05,https://www.unobus.co.jp/bustei/786#786_05,0,,
786_06,,桜が丘西９丁目東,,34.779931,134.031941,786_06,https://www.unobus.co.jp/bustei/786#786_06,0,,
788_05,,桜が丘西９丁目中,,34.779093,134.030421,788_05,https://www.unobus.co.jp/bustei/788#788_05,0,,
788_06,,桜が丘西９丁目中,,34.778541,134.029646,788_06,https://www.unobus.co.jp/bustei/788#788_06,0,,
790_05,,桜が丘西９丁目西,,34.777751,134.027391238095,790_05,https://www.unobus.co.jp/bustei/790#790_05,0,,
790_06,,桜が丘西９丁目西,,34.778013,134.028445285714,790_06,https://www.unobus.co.jp/bustei/790#790_06,0,,
792_05,,桜が丘運動公園口,,34.7773193333333,134.026143190477,792_05,https://www.unobus.co.jp/bustei/792#792_05,0,,
792_09,,桜が丘運動公園口,,34.7773762151704,134.026609440422,792_09,https://www.unobus.co.jp/bustei/792#792_09,0,,
800_04,,上市,,34.757178,134.014564714286,800_04,https://www.unobus.co.jp/bustei/800#800_04,0,,
800_05,,上市,,34.757028,134.014627714286,800_05,https://www.unobus.co.jp/bustei/800#800_05,0,,
802_04,,正崎下,,34.76065,134.013854857143,802_04,https://www.unobus.co.jp/bustei/802#802_04,0,,
802_05,,正崎下,,34.760745,134.013908,802_05,https://www.unobus.co.jp/bustei/802#802_05,0,,
804_04,,正崎,,34.765677,134.013052714286,804_04,https://www.unobus.co.jp/bustei/804#804_04,0,,
804_05,,正崎,,34.765653,134.013078,804_05,https://www.unobus.co.jp/bustei/804#804_05,0,,
806_04,,五日市下,,34.771088,134.012410285714,806_04,https://www.unobus.co.jp/bustei/806#806_04,0,,
806_05,,五日市下,,34.7694,134.01275,806_05,https://www.unobus.co.jp/bustei/806#806_05,0,,
808_04,,五日市上,,34.773514,134.012037571429,808_04,https://www.unobus.co.jp/bustei/808#808_04,0,,
808_05,,五日市上,,34.772969,134.012171,808_05,https://www.unobus.co.jp/bustei/808#808_05,0,,
810_04,,農業試験場口,,34.778058,134.011248571429,810_04,https://www.unobus.co.jp/bustei/810#810_04,0,,
810_05,,農業試験場口,,34.778345,134.011201,810_05,https://www.unobus.co.jp/bustei/810#810_05,0,,
812_04,,東窪田,,34.781917,134.010445714286,812_04,https://www.unobus.co.jp/bustei/812#812_04,0,,
812_05,,東窪田,,34.782058,134.010447571429,812_05,https://www.unobus.co.jp/bustei/812#812_05,0,,
814_04,,窪田,,34.783982,134.009984571429,814_04,https://www.unobus.co.jp/bustei/814#814_04,0,,
814_05,,窪田,,34.783983,134.010026285714,814_05,https://www.unobus.co.jp/bustei/814#814_05,0,,
816_04,,窪田上,,34.787818,134.009414714286,816_04,https://www.unobus.co.jp/bustei/816#816_04,0,,
818_04,,町苅田下,,34.789621,134.009355857143,818_04,https://www.unobus.co.jp/bustei/818#818_04,0,,
818_05,,町苅田下,,34.789135,134.009452428571,818_05,https://www.unobus.co.jp/bustei/818#818_05,0,,
820_04,,町苅田,,34.793436,134.006899,820_04,https://www.unobus.co.jp/bustei/820#820_04,0,,
820_05,,町苅田,,34.793307,134.006987,820_05,https://www.unobus.co.jp/bustei/820#820_05,0,,
822_04,,赤坂支所前,,34.798346,134.009251,822_04,https://www.unobus.co.jp/bustei/822#822_04,0,,
822_05,,赤坂支所前,,34.797754,134.008682285714,822_05,https://www.unobus.co.jp/bustei/822#822_05,0,,
824_04,,赤坂中学校前,,34.799694,134.010839,824_04,https://www.unobus.co.jp/bustei/824#824_04,0,,
824_05,,赤坂中学校前,,34.799404,134.010568,824_05,https://www.unobus.co.jp/bustei/824#824_05,0,,
826_04,,軽部住宅前,,34.801751,134.012926,826_04,https://www.unobus.co.jp/bustei/826#826_04,0,,
826_05,,軽部住宅前,,34.801291,134.012733,826_05,https://www.unobus.co.jp/bustei/826#826_05,0,,
828_04,,軽部下,,34.803896,134.014666,828_04,https://www.unobus.co.jp/bustei/828#828_04,0,,
828_05,,軽部下,,34.803842,134.014689857143,828_05,https://www.unobus.co.jp/bustei/828#828_05,0,,
830_04,,軽部上,,34.808402,134.013183,830_04,https://www.unobus.co.jp/bustei/830#830_04,0,,
830_05,,軽部上,,34.807999,134.01381,830_05,https://www.unobus.co.jp/bustei/830#830_05,0,,
832_04,,多賀下,,34.818938,134.014291857143,832_04,https://www.unobus.co.jp/bustei/832#832_04,0,,
832_05,,多賀下,,34.819289,134.014255714286,832_05,https://www.unobus.co.jp/bustei/832#832_05,0,,
834_04,,多賀上,,34.822964,134.011941714286,834_04,https://www.unobus.co.jp/bustei/834#834_04,0,,
834_05,,多賀上,,34.822436,134.012395,834_05,https://www.unobus.co.jp/bustei/834#834_05,0,,
836_04,,出屋,,34.8296176666667,134.012985142857,836_04,https://www.unobus.co.jp/bustei/836#836_04,0,,
836_05,,出屋,,34.829321,134.013143857143,836_05,https://www.unobus.co.jp/bustei/836#836_05,0,,
838_04,,出屋上,,34.8331336666667,134.011957714286,838_04,https://www.unobus.co.jp/bustei/838#838_04,0,,
838_05,,出屋上,,34.832805,134.012092,838_05,https://www.unobus.co.jp/bustei/838#838_05,0,,
840_04,,坂辺,,34.837637,134.011378047619,840_04,https://www.unobus.co.jp/bustei/840#840_04,0,,
840_05,,坂辺,,34.836701,134.011826,840_05,https://www.unobus.co.jp/bustei/840#840_05,0,,
842_04,,坂辺上,,34.841211,134.010124285714,842_04,https://www.unobus.co.jp/bustei/842#842_04,0,,
842_05,,坂辺上,,34.841353,134.010109,842_05,https://www.unobus.co.jp/bustei/842#842_05,0,,
844_04,,合田下,,34.8458666666667,134.006109761905,844_04,https://www.unobus.co.jp/bustei/844#844_04,0,,
844_05,,合田下,,34.846301,134.006038571429,844_05,https://www.unobus.co.jp/bustei/844#844_05,0,,
846_04,,合田,,34.852016,134.008423,846_04,https://www.unobus.co.jp/bustei/846#846_04,0,,
846_05,,合田,,34.852243,134.00864,846_05,https://www.unobus.co.jp/bustei/846#846_05,0,,
848_04,,合田上,,34.86275,134.008598285714,848_04,https://www.unobus.co.jp/bustei/848#848_04,0,,
848_05,,合田上,,34.862789,134.008703,848_05,https://www.unobus.co.jp/bustei/848#848_05,0,,
850_04,,仁堀下,,34.866157,134.008816,850_04,https://www.unobus.co.jp/bustei/850#850_04,0,,
850_05,,仁堀下,,34.865545,134.009143285714,850_05,https://www.unobus.co.jp/bustei/850#850_05,0,,
852_04,,仁堀,,34.87296,134.012711285714,852_04,https://www.unobus.co.jp/bustei/852#852_04,0,,
852_05,,仁堀,,34.873407,134.013058428571,852_05,https://www.unobus.co.jp/bustei/852#852_05,0,,
854_04,,仁堀局前,,34.877745,134.017609,854_04,https://www.unobus.co.jp/bustei/854#854_04,0,,
854_05,,仁堀局前,,34.877725,134.017564857143,854_05,https://www.unobus.co.jp/bustei/854#854_05,0,,
856_04,,仁堀上,,34.878548,134.020816285714,856_04,https://www.unobus.co.jp/bustei/856#856_04,0,,
856_05,,仁堀上,,34.878498,134.020508,856_05,https://www.unobus.co.jp/bustei/856#856_05,0,,
858_04,,菊ケ峠,,34.881474,134.029727,858_04,https://www.unobus.co.jp/bustei/858#858_04,0,,
858_05,,菊ケ峠,,34.881431,134.029903571429,858_05,https://www.unobus.co.jp/bustei/858#858_05,0,,
860_04,,塩木上,,34.88311,134.036139571429,860_04,https://www.unobus.co.jp/bustei/860#860_04,0,,
860_05,,塩木上,,34.883065,134.036077,860_05,https://www.unobus.co.jp/bustei/860#860_05,0,,
862_04,,塩木中,,34.883356,134.042674428571,862_04,https://www.unobus.co.jp/bustei/862#862_04,0,,
862_05,,塩木中,,34.882737,134.041194428571,862_05,https://www.unobus.co.jp/bustei/862#862_05,0,,
864_04,,塩木下,,34.884886,134.047604857143,864_04,https://www.unobus.co.jp/bustei/864#864_04,0,,
864_05,,塩木下,,34.884662,134.046914285714,864_05,https://www.unobus.co.jp/bustei/864#864_05,0,,
866_04,,湯免温泉,,34.887485,134.057402,866_04,https://www.unobus.co.jp/bustei/866#866_04,0,,
866_05,,湯免温泉,,34.887512,134.057904428571,866_05,https://www.unobus.co.jp/bustei/866#866_05,0,,
868_04,,佐伯北,,34.89094,134.064492857143,868_04,https://www.unobus.co.jp/bustei/868#868_04,0,,
868_05,,佐伯北,,34.89073,134.064287,868_05,https://www.unobus.co.jp/bustei/868#868_05,0,,
870_04,,吉井総合センター,,34.892973,134.070003,870_04,https://www.unobus.co.jp/bustei/870#870_04,0,,
870_05,,吉井総合センター,,34.89284,134.069426,870_05,https://www.unobus.co.jp/bustei/870#870_05,0,,
872_04,,高田,,34.894297,134.07278,872_04,https://www.unobus.co.jp/bustei/872#872_04,0,,
872_05,,高田,,34.89429,134.07289,872_05,https://www.unobus.co.jp/bustei/872#872_05,0,,
874_04,,稲蒔,,34.896755,134.082297142857,874_04,https://www.unobus.co.jp/bustei/874#874_04,0,,
874_05,,稲蒔,,34.896796,134.082647,874_05,https://www.unobus.co.jp/bustei/874#874_05,0,,
876_04,,福田住宅前,,34.903525,134.08379,876_04,https://www.unobus.co.jp/bustei/876#876_04,0,,
876_05,,福田住宅前,,34.904711,134.084227,876_05,https://www.unobus.co.jp/bustei/876#876_05,0,,
878_04,,福田,,34.908622,134.087097428571,878_04,https://www.unobus.co.jp/bustei/878#878_04,0,,
878_05,,福田,,34.908371,134.086997285714,878_05,https://www.unobus.co.jp/bustei/878#878_05,0,,
880_04,,山方口,,34.912593,134.090251428571,880_04,https://www.unobus.co.jp/bustei/880#880_04,0,,
880_05,,山方口,,34.912217,134.089991,880_05,https://www.unobus.co.jp/bustei/880#880_05,0,,
882_04,,吉井中学校前,,34.917316,134.092998,882_04,https://www.unobus.co.jp/bustei/882#882_04,0,,
882_05,,吉井中学校前,,34.91715,134.092981428571,882_05,https://www.unobus.co.jp/bustei/882#882_05,0,,
884_04,,周匝,,34.91884,134.093807,884_04,https://www.unobus.co.jp/bustei/884#884_04,0,,
884_05,,周匝,,34.918515,134.093692,884_05,https://www.unobus.co.jp/bustei/884#884_05,0,,
886_04,,周匝上,,34.921141,134.096396,886_04,https://www.unobus.co.jp/bustei/886#886_04,0,,
886_05,,周匝上,,34.920624,134.095661,886_05,https://www.unobus.co.jp/bustei/886#886_05,0,,
888_04,,落合,,34.923673,134.102605428571,888_04,https://www.unobus.co.jp/bustei/888#888_04,0,,
888_05,,落合,,34.923734,134.102803,888_05,https://www.unobus.co.jp/bustei/888#888_05,0,,
890_04,,高下,,34.926602,134.107669857143,890_04,https://www.unobus.co.jp/bustei/890#890_04,0,,
890_05,,高下,,34.926537,134.107607,890_05,https://www.unobus.co.jp/bustei/890#890_05,0,,
892_04,,奥,,34.927274,134.111501714286,892_04,https://www.unobus.co.jp/bustei/892#892_04,0,,
892_05,,奥,,34.927207,134.111395,892_05,https://www.unobus.co.jp/bustei/892#892_05,0,,
894_04,,奥上,,34.928141,134.112988,894_04,https://www.unobus.co.jp/bustei/894#894_04,0,,
894_05,,奥上,,34.928167,134.113127,894_05,https://www.unobus.co.jp/bustei/894#894_05,0,,
896_04,,天神,,34.9307706666667,134.118735666667,896_04,https://www.unobus.co.jp/bustei/896#896_04,0,,
896_05,,天神,,34.930516,134.11835,896_05,https://www.unobus.co.jp/bustei/896#896_05,0,,
898_04,,王子橋,,34.9328403333333,134.122198714286,898_04,https://www.unobus.co.jp/bustei/898#898_04,0,,
898_05,,王子橋,,34.933088,134.122299,898_05,https://www.unobus.co.jp/bustei/898#898_05,0,,
900_04,,福本下,,34.935433,134.122284,900_04,https://www.unobus.co.jp/bustei/900#900_04,0,,
900_05,,福本下,,34.935996,134.12248,900_05,https://www.unobus.co.jp/bustei/900#900_05,0,,
902_04,,福本,,34.938055,134.123150285714,902_04,https://www.unobus.co.jp/bustei/902#902_04,0,,
902_05,,福本,,34.937721,134.123079,902_05,https://www.unobus.co.jp/bustei/902#902_05,0,,
904_04,,小原,,34.9411,134.125336571429,904_04,https://www.unobus.co.jp/bustei/904#904_04,0,,
904_05,,小原,,34.941144,134.125573,904_05,https://www.unobus.co.jp/bustei/904#904_05,0,,
906_04,,椿谷,,34.943889,134.135396,906_04,https://www.unobus.co.jp/bustei/906#906_04,0,,
906_05,,椿谷,,34.944122,134.135803,906_05,https://www.unobus.co.jp/bustei/906#906_05,0,,
908_04,,尾谷,,34.948404,134.135928714286,908_04,https://www.unobus.co.jp/bustei/908#908_04,0,,
908_05,,尾谷,,34.948239,134.135977,908_05,https://www.unobus.co.jp/bustei/908#908_05,0,,
910_04,,尾原,,34.955148,134.132863,910_04,https://www.unobus.co.jp/bustei/910#910_04,0,,
910_05,,尾原,,34.95513,134.133091,910_05,https://www.unobus.co.jp/bustei/910#910_05,0,,
912_04,,尾原上,,34.957957,134.129384,912_04,https://www.unobus.co.jp/bustei/912#912_04,0,,
912_05,,尾原上,,34.957788,134.129526,912_05,https://www.unobus.co.jp/bustei/912#912_05,0,,
914_04,,樫村,,34.965589,134.134070285714,914_04,https://www.unobus.co.jp/bustei/914#914_04,0,,
914_05,,樫村,,34.965638,134.134205142857,914_05,https://www.unobus.co.jp/bustei/914#914_05,0,,
916_04,,下倉敷,,34.975411,134.126320857143,916_04,https://www.unobus.co.jp/bustei/916#916_04,0,,
916_05,,下倉敷,,34.975581,134.125903,916_05,https://www.unobus.co.jp/bustei/916#916_05,0,,
918_04,,畑沖下,,34.982932,134.127287,918_04,https://www.unobus.co.jp/bustei/918#918_04,0,,
918_05,,畑沖下,,34.983565,134.127663,918_05,https://www.unobus.co.jp/bustei/918#918_05,0,,
920_04,,畑沖,,34.98594,134.128566,920_04,https://www.unobus.co.jp/bustei/920#920_04,0,,
920_05,,畑沖,,34.985991,134.128684,920_05,https://www.unobus.co.jp/bustei/920#920_05,0,,
922_04,,鷺湯橋,,34.991199,134.133826,922_04,https://www.unobus.co.jp/bustei/922#922_04,0,,
922_05,,鷺湯橋,,34.991144,134.133472,922_05,https://www.unobus.co.jp/bustei/922#922_05,0,,
924_04,,湯郷温泉下,,34.991385,134.134943142857,924_04,https://www.unobus.co.jp/bustei/924#924_04,0,,
924_05,,湯郷温泉下,,34.991244,134.134862,924_05,https://www.unobus.co.jp/bustei/924#924_05,0,,
926_04,,湯郷温泉上,,34.993651,134.139602,926_04,https://www.unobus.co.jp/bustei/926#926_04,0,,
926_05,,湯郷温泉上,,34.993439,134.139519,926_05,https://www.unobus.co.jp/bustei/926#926_05,0,,
928_04,,美作第一小学校前,,34.997022,134.141632,928_04,https://www.unobus.co.jp/bustei/928#928_04,0,,
928_05,,美作第一小学校前,,34.997219,134.141866,928_05,https://www.unobus.co.jp/bustei/928#928_05,0,,
930_04,,林野バスセンター,,35.002824,134.143915571429,930_04,https://www.unobus.co.jp/bustei/930#930_04,0,,
930_05,,林野バスセンター,,35.00271,134.143933,930_05,https://www.unobus.co.jp/bustei/930#930_05,0,,
932_04,,本町,,35.002901,134.146109142857,932_04,https://www.unobus.co.jp/bustei/932#932_04,0,,
932_05,,本町,,35.003716,134.146663714286,932_05,https://www.unobus.co.jp/bustei/932#932_05,0,,
934_04,,栄町,,35.008578,134.149364285714,934_04,https://www.unobus.co.jp/bustei/934#934_04,0,,
934_05,,栄町,,35.008564,134.149397428571,934_05,https://www.unobus.co.jp/bustei/934#934_05,0,,
936_05,,林野駅前,,35.012687,134.150756142857,936_05,https://www.unobus.co.jp/bustei/936#936_05,0,,
946_04,,新道立川口,,34.741975,134.015649,946_04,https://www.unobus.co.jp/bustei/946#946_04,0,,
946_05,,新道立川口,,34.741382,134.015439,946_05,https://www.unobus.co.jp/bustei/946#946_05,0,,
948_04,,新道河本西,,34.744925,134.016672428571,948_04,https://www.unobus.co.jp/bustei/948#948_04,0,,
948_05,,新道河本西,,34.743999,134.016559,948_05,https://www.unobus.co.jp/bustei/948#948_05,0,,
950_04,,新道河本,,34.74665,134.017172571429,950_04,https://www.unobus.co.jp/bustei/950#950_04,0,,
950_05,,新道河本,,34.746135,134.01718,950_05,https://www.unobus.co.jp/bustei/950#950_05,0,,
952_04,,新道山陽マルナカ前,,34.749265,134.01794,952_04,https://www.unobus.co.jp/bustei/952#952_04,0,,
952_05,,新道山陽マルナカ前,,34.74855,134.017834857143,952_05,https://www.unobus.co.jp/bustei/952#952_05,0,,
954_04,,新道赤磐市役所入口,,34.753525,134.021512,954_04,https://www.unobus.co.jp/bustei/954#954_04,0,,
954_05,,新道赤磐市役所入口,,34.753392,134.021662,954_05,https://www.unobus.co.jp/bustei/954#954_05,0,,
956_04,,新道高屋,,34.756636,134.024493,956_04,https://www.unobus.co.jp/bustei/956#956_04,0,,
956_05,,新道高屋,,34.7557779999998,134.023844285714,956_05,https://www.unobus.co.jp/bustei/956#956_05,0,,
958_04,,新道高屋上,,34.758147,134.025898142857,958_04,https://www.unobus.co.jp/bustei/958#958_04,0,,
958_05,,新道高屋上,,34.757361,134.025330714286,958_05,https://www.unobus.co.jp/bustei/958#958_05,0,,
960_04,,新道沼田,,34.760548,134.028184047619,960_04,https://www.unobus.co.jp/bustei/960#960_04,0,,
960_05,,新道沼田,,34.759796,134.027683,960_05,https://www.unobus.co.jp/bustei/960#960_05,0,,
962_04,,新道二井口,,34.7621683333333,134.030527428571,962_04,https://www.unobus.co.jp/bustei/962#962_04,0,,
962_05,,新道二井口,,34.761847,134.030358,962_05,https://www.unobus.co.jp/bustei/962#962_05,0,,
1576_04,,山陽団地中１番,,34.744283,134.005236428572,1576_04,https://www.unobus.co.jp/bustei/1576#1576_04,0,,
1576_05,,山陽団地中１番,,34.744254,134.005408,1576_05,https://www.unobus.co.jp/bustei/1576#1576_05,0,,
1578_04,,山陽団地郵便局前,,34.746126,134.005368,1578_04,https://www.unobus.co.jp/bustei/1578#1578_04,0,,
1578_05,,山陽団地郵便局前,,34.745964,134.005478,1578_05,https://www.unobus.co.jp/bustei/1578#1578_05,0,,
1580_04,,山陽団地中２番,,34.747626,134.005437,1580_04,https://www.unobus.co.jp/bustei/1580#1580_04,0,,
1580_05,,山陽団地中２番,,34.747433,134.005533,1580_05,https://www.unobus.co.jp/bustei/1580#1580_05,0,,
1582_04,,山陽西小学校前,,34.750197,134.005589,1582_04,https://www.unobus.co.jp/bustei/1582#1582_04,0,,
1582_05,,山陽西小学校前,,34.749867,134.005664,1582_05,https://www.unobus.co.jp/bustei/1582#1582_05,0,,
1584_04,,山陽団地中３番,,34.751822,134.005837,1584_04,https://www.unobus.co.jp/bustei/1584#1584_04,0,,
1584_05,,山陽団地中３番,,34.751813,134.005985142857,1584_05,https://www.unobus.co.jp/bustei/1584#1584_05,0,,
2086_01,,下市,,34.753548,134.017006142858,2086_01,https://www.unobus.co.jp/bustei/2086#2086_01,0,,
2086_02,,下市,,34.754195,134.016481142857,2086_02,https://www.unobus.co.jp/bustei/2086#2086_02,0,,
2086_04,,下市,,34.7541116666667,134.016376380952,2086_04,https://www.unobus.co.jp/bustei/2086#2086_04,0,,
2086_05,,下市,,34.753623,134.017114714287,2086_05,https://www.unobus.co.jp/bustei/2086#2086_05,0,,
9512_03,,県民局入口（東岡山）,,34.669691,133.926171428572,9512_03,https://www.unobus.co.jp/bustei/9512#9512_03,0,,
9513_03,,岡電柳川（東岡山）,,34.666874,133.926141714286,9513_03,https://www.unobus.co.jp/bustei/9513#9513_03,0,,
